[
{
    "name": "BELLEVILLE DAS PAVAL ALIMENTATION GÉNÉRALE",
    "address":" 71 r Belleville, 75019 PARIS",
    "coords":  {
      "latitude": 48.873564,
      "longitude": 2.38318
    }
  },
{
    "name": "Lahore Supermarche",
    "address":"89 r Fbg St Denis, 75010 PARIS",
    "coords":  {
      "latitude": 48.874011,
      "longitude": 2.354914
    }
  },
{
    "name": "Halimi Jamal",
    "address":"1 r Am Roussin, 75015 PARIS",
    "coords":  {
      "latitude": 48.845919,
      "longitude": 2.298863
    }
  },
{
    "name": "Aral",
    "address":"1 r Championnet, 75018 PARIS",
    "coords":  {
      "latitude": 48.895032,
      "longitude": 2.352599
    }
  },
{
    "name": "Satouri Hedi Satouri Rachid",
    "address":"1 r François Ponsard, 75116 PARIS",
    "coords":  {
      "latitude": 48.858555,
      "longitude": 2.27398
    }
  },
{
    "name": "KR-BA",
    "address":"1 r Lunain, 75014 PARIS",
    "coords":  {
      "latitude": 48.827622,
      "longitude": 2.329246
    }
  },
{
    "name": "La Cave Aux Fromages",
    "address":"1 r Retrait, 75020 PARIS",
    "coords":  {
      "latitude": 48.86765,
      "longitude": 2.39611
    }
  },
{
    "name": "Id Amar Ahmed",
    "address":"1 r Saussure, 75017 PARIS",
    "coords":  {
      "latitude": 48.882995,
      "longitude": 2.317421
    }
  },
{
    "name": "R Et V Market",
    "address":"10 bd Davout, 75020 PARIS",
    "coords":  {
      "latitude": 48.848959,
      "longitude": 2.411883
    }
  },
{
    "name": "Bayach",
    "address":"10 Bis r Yvonne Le Tac, 75018 PARIS",
    "coords":  {
      "latitude": 48.88423,
      "longitude": 2.340646
    }
  },
{
    "name": "Les Coteaux De Saumur",
    "address":"10 r Bichat, 75010 PARIS",
    "coords":  {
      "latitude": 48.870021,
      "longitude": 2.369274
    }
  },
{
    "name": "Sadik",
    "address":"10 r Birague, 75004 PARIS",
    "coords":  {
      "latitude": 48.854335,
      "longitude": 2.365164
    }
  },
{
    "name": "Waskar Zahra",
    "address":"10 r Emile Gilbert, 75012 PARIS",
    "coords":  {
      "latitude": 48.846631,
      "longitude": 2.373304
    }
  },
{
    "name": "L'avenir Du Faubourg B Y G",
    "address":"10 r Fbg St Denis, 75010 PARIS",
    "coords":  {
      "latitude": 48.870149,
      "longitude": 2.353269
    }
  },
{
    "name": "Food Market (SARL) mo prix mo moprixmo",
    "address":"10 r Fessart, 75019 PARIS",
    "coords":  {
      "latitude": 48.876436,
      "longitude": 2.387414
    }
  },
{
    "name": "Alimentation du Marché",
    "address":"100 bd Chapelle, 75018 PARIS",
    "coords":  {
      "latitude": 48.884188,
      "longitude": 2.352581
    }
  },
{
    "name": "JARDIN DAUMESNIL",
    "address":"100 r Claude Decaen, 75012 PARIS",
    "coords":  {
      "latitude": 48.83901,
      "longitude": 2.396182
    }
  },
{
    "name": "El Ghoul Mahmoud",
    "address":"101 bd Malesherbes, 75008 PARIS",
    "coords":  {
      "latitude": 48.87914,
      "longitude": 2.314241
    }
  },
{
    "name": "SAAJ Dragon Games",
    "address":"101 r Damrémont, 75018 PARIS",
    "coords":  {
      "latitude": 48.894946,
      "longitude": 2.337127
    }
  },
{
    "name": "Superette De Nation",
    "address":"102 bd Picpus, 75012 PARIS",
    "coords":  {
      "latitude": 48.847405,
      "longitude": 2.399404
    }
  },
{
    "name": "Gonash Trads",
    "address":"102 r Blanche, 75009 PARIS",
    "coords":  {
      "latitude": 48.88323,
      "longitude": 2.332398
    }
  },
{
    "name": "Happy Home",
    "address":"102 r de Ouest, 75014 PARIS",
    "coords":  {
      "latitude": 48.834301,
      "longitude": 2.315739
    }
  },
{
    "name": "Ben Messaoud Nazia",
    "address":"103 r Bobillot, 75013 PARIS",
    "coords":  {
      "latitude": 48.824114,
      "longitude": 2.348913
    }
  },
{
    "name": "MASSA",
    "address":"103 r Lamarck, 75018 PARIS",
    "coords":  {
      "latitude": 48.890525,
      "longitude": 2.33355
    }
  },
{
    "name": "Ikerchalene Lahcen",
    "address":"103 r Manin, 75019 PARIS",
    "coords":  {
      "latitude": 48.88334,
      "longitude": 2.387287
    }
  },
{
    "name": "El Akhawayne",
    "address":"104 bd Berthier, 75017 PARIS",
    "coords":  {
      "latitude": 48.889677,
      "longitude": 2.302663
    }
  },
{
    "name": "ALIMENTATION GÉNÉRALE OBERKAMPF",
    "address":"104 r Oberkampf, 75011 PARIS",
    "coords":  {
      "latitude": 48.865916,
      "longitude": 2.378526
    }
  },
{
    "name": "Express Distribution Sampathkumar",
    "address":"106 av Jean Jaurès, 75019 PARIS",
    "coords":  {
      "latitude": 48.885263,
      "longitude": 2.380441
    }
  },
{
    "name": "La Parisienne",
    "address":"106 av Kléber, 75116 PARIS",
    "coords":  {
      "latitude": 48.865141,
      "longitude": 2.28828
    }
  },
{
    "name": "Adrar Larbi",
    "address":"11 bd Clichy, 75009 PARIS",
    "coords":  {
      "latitude": 48.881981,
      "longitude": 2.338419
    }
  },
{
    "name": "LE MINI-MARCHÉ CLICHY",
    "address":"11 bd de Clichy, 75018 PARIS",
    "coords":  {
      "latitude": 48.881981,
      "longitude": 2.338419
    }
  },
{
    "name": "Pmb (SARL)",
    "address":"11 r Daval, 75011 PARIS",
    "coords":  {
      "latitude": 48.85509,
      "longitude": 2.370599
    }
  },
{
    "name": "Cocci Market MF Avenir",
    "address":"11 r Frédéric Brunet, 75017 PARIS",
    "coords":  {
      "latitude": 48.898172,
      "longitude": 2.325176
    }
  },
{
    "name": "PELLA",
    "address":"11 r Martyrs, 75009 PARIS",
    "coords":  {
      "latitude": 48.877677,
      "longitude": 2.339048
    }
  },
{
    "name": "Azarel",
    "address":"11 r Meaux, 75019 PARIS",
    "coords":  {
      "latitude": 48.878876,
      "longitude": 2.370968
    }
  },
{
    "name": "Afriad Tahr",
    "address":"11 r Odessa, 75014 PARIS",
    "coords":  {
      "latitude": 48.842367,
      "longitude": 2.324819
    }
  },
{
    "name": "Les 2 M Distribution",
    "address":"11 r Polonceau, 75018 PARIS",
    "coords":  {
      "latitude": 48.885434,
      "longitude": 2.35376
    }
  },
{
    "name": "El Mokhtari Ahmed",
    "address":"11 r Sorbier, 75020 PARIS",
    "coords":  {
      "latitude": 48.868047,
      "longitude": 2.39049
    }
  },
{
    "name": "Basma (SARL)",
    "address":"110 r Meaux, 75019 PARIS",
    "coords":  {
      "latitude": 48.88545,
      "longitude": 2.381456
    }
  },
{
    "name": "Primer Tocqueville",
    "address":"111 r Tocqueville, 75017 PARIS",
    "coords":  {
      "latitude": 48.888724,
      "longitude": 2.305537
    }
  },
{
    "name": "Kechta Mohamed",
    "address":"112 av Italie, 75013 PARIS",
    "coords":  {
      "latitude": 48.824248,
      "longitude": 2.357544
    }
  },
{
    "name": "Saravanamuthu Pathmalojany",
    "address":"112 bd Sérurier, 75019 PARIS",
    "coords":  {
      "latitude": 48.884922,
      "longitude": 2.394462
    }
  },
{
    "name": "Benhassen Ali",
    "address":"113 bd Jourdan, 75014 PARIS",
    "coords":  {
      "latitude": 48.822579,
      "longitude": 2.327407
    }
  },
{
    "name": "Zaghdoun Clément",
    "address":"114 av Ledru Rollin, 75011 PARIS",
    "coords":  {
      "latitude": 48.852894,
      "longitude": 2.377271
    }
  },
{
    "name": "Addadis",
    "address":"114 bd Belleville, 75020 PARIS",
    "coords":  {
      "latitude": 48.871209,
      "longitude": 2.378435
    }
  },
{
    "name": "L'Annexe Cadet",
    "address":"114 r de Belleville, 75020 PARIS",
    "coords":  {
      "latitude": 48.874557,
      "longitude": 2.387711
    }
  },
{
    "name": "El Yousfi Mohamed",
    "address":"114 r Sèvres, 75015 PARIS",
    "coords":  {
      "latitude": 48.845626,
      "longitude": 2.311979
    }
  },
{
    "name": "Charrhine Brahim",
    "address":"116 r Monge, 75005 PARIS",
    "coords":  {
      "latitude": 48.839148,
      "longitude": 2.350681
    }
  },
{
    "name": "Vittorio (SARL)",
    "address":"117 r Charenton, 75012 PARIS",
    "coords":  {
      "latitude": 48.846059,
      "longitude": 2.379797
    }
  },
{
    "name": "Abk",
    "address":"118 av Mozart, 75016 PARIS",
    "coords":  {
      "latitude": 48.850015,
      "longitude": 2.266589
    }
  },
{
    "name": "Jemil Oriental",
    "address":"119 av St Ouen, 75017 PARIS",
    "coords":  {
      "latitude": 48.895277,
      "longitude": 2.327843
    }
  },
{
    "name": "PROXI NINARA",
    "address":"119 r St Maur, 75011 PARIS",
    "coords":  {
      "latitude": 48.86641,
      "longitude": 2.376431
    }
  },
{
    "name": "SUPERETTE LA FOURCHE",
    "address":"12 av de Saint Ouen, 75018 PARIS",
    "coords":  {
      "latitude": 48.888013,
      "longitude": 2.326058
    }
  },
{
    "name": "El Kamel Mouez",
    "address":"12 bd Chapelle, 75018 PARIS",
    "coords":  {
      "latitude": 48.884751,
      "longitude": 2.36402
    }
  },
{
    "name": "Ben Maamar Abderrazak",
    "address":"12 bd Morland, 75004 PARIS",
    "coords":  {
      "latitude": 48.849122,
      "longitude": 2.364648
    }
  },
{
    "name": "Les Quatres Saisons",
    "address":"12 r Belleville, 75020 PARIS",
    "coords":  {
      "latitude": 48.872345,
      "longitude": 2.378599
    }
  },
{
    "name": "Philippine Mini Mart",
    "address":"12 r Bois le Vent, 75016 PARIS",
    "coords":  {
      "latitude": 48.857677,
      "longitude": 2.276555
    }
  },
{
    "name": "Oueghlani Salem",
    "address":"12 r Carmes, 75005 PARIS",
    "coords":  {
      "latitude": 48.849418,
      "longitude": 2.347562
    }
  },
{
    "name": "Ali Faisal",
    "address":"12 r Fbg St Denis, 75010 PARIS",
    "coords":  {
      "latitude": 48.870332,
      "longitude": 2.353115
    }
  },
{
    "name": "La Jonquière",
    "address":"12 r La Jonquière, 75017 PARIS",
    "coords":  {
      "latitude": 48.893482,
      "longitude": 2.326279
    }
  },
{
    "name": "Suad",
    "address":"12 r Marx Dormoy, 75018 PARIS",
    "coords":  {
      "latitude": 48.885565,
      "longitude": 2.359793
    }
  },
{
    "name": "Proxi Service",
    "address":"124 r Cherche Midi, 75006 PARIS",
    "coords":  {
      "latitude": 48.845908,
      "longitude": 2.319405
    }
  },
{
    "name": "Azzi Lahoucine",
    "address":"129 bd Charonne, 75011 PARIS",
    "coords":  {
      "latitude": 48.857248,
      "longitude": 2.392473
    }
  },
{
    "name": "Aux Halles De La Viande",
    "address":"129 r Oberkampf, 75011 PARIS",
    "coords":  {
      "latitude": 48.866396,
      "longitude": 2.379639
    }
  },
{
    "name": "COCCI-MARKET BELGRAND",
    "address":"13 r Belgrand, 75020 PARIS",
    "coords":  {
      "latitude": 48.864716,
      "longitude": 2.401153
    }
  },
{
    "name": "ALIMENTATION GÉNÉRALE CUSTINE",
    "address":"13 r Custine, 75018 PARIS",
    "coords":  {
      "latitude": 48.887719,
      "longitude": 2.348401
    }
  },
{
    "name": "Bakla Elhoucen",
    "address":"13 r Rochechouart, 75009 PARIS",
    "coords":  {
      "latitude": 48.877304,
      "longitude": 2.344386
    }
  },
{
    "name": "ZHAO LIN (SARL)",
    "address":"13 r Roquette, 75011 PARIS",
    "coords":  {
      "latitude": 48.854228,
      "longitude": 2.37104
    }
  },
{
    "name": "Les Fruits De La Reine",
    "address":"134 r St Denis, 75002 PARIS",
    "coords":  {
      "latitude": 48.864984,
      "longitude": 2.350454
    }
  },
{
    "name": "ALIMENTATION GÉNÉRALE ITALIE",
    "address":"138 av d’Italie, 75013 PARIS",
    "coords":  {
      "latitude": 48.823178,
      "longitude": 2.35767
    }
  },
{
    "name": "Alimentation Wagram",
    "address":"138 av Wagram, 75017 PARIS",
    "coords":  {
      "latitude": 48.885688,
      "longitude": 2.304229
    }
  },
{
    "name": "El Cadi Mourad",
    "address":"14 r Poirier de Narçay, 75014 PARIS",
    "coords":  {
      "latitude": 48.8244,
      "longitude": 2.324144
    }
  },
{
    "name": "CHUONG",
    "address":"142 bd Ménilmontant, 75020 PARIS",
    "coords":  {
      "latitude": 48.866553,
      "longitude": 2.383955
    }
  },
{
    "name": "Supérette Franco Orientale Dite SFO",
    "address":"146 av Flandre, 75019 PARIS",
    "coords":  {
      "latitude": 48.893652,
      "longitude": 2.381285
    }
  },
{
    "name": "Boukal Messaoud",
    "address":"147 r Fbg Poissonnière, 75009 PARIS",
    "coords":  {
      "latitude": 48.879892,
      "longitude": 2.349215
    }
  },
{
    "name": "Atik Ahmed",
    "address":"148 av Clichy, 75017 PARIS",
    "coords":  {
      "latitude": 48.891158,
      "longitude": 2.319654
    }
  },
{
    "name": "Adrar Brahim",
    "address":"15 bd Clichy, 75009 PARIS",
    "coords":  {
      "latitude": 48.882132,
      "longitude": 2.337852
    }
  },
{
    "name": "LIBRE-SERVICE PIGALLE",
    "address":"15 bd de Clichy, 75018 PARIS",
    "coords":  {
      "latitude": 48.884704,
      "longitude": 2.328474
    }
  },
{
    "name": "ALIMENTATION GÉNÉRALE ROCHECHOUART",
    "address":"15 bd Rochechouart, 75018 PARIS",
    "coords":  {
      "latitude": 48.883098,
      "longitude": 2.347638
    }
  },
{
    "name": "Satouri Mounir",
    "address":"15 r Castellane, 75008 PARIS",
    "coords":  {
      "latitude": 48.872329,
      "longitude": 2.324481
    }
  },
{
    "name": "Hana Food",
    "address":"15 r Letellier, 75015 PARIS",
    "coords":  {
      "latitude": 48.848429,
      "longitude": 2.295155
    }
  },
{
    "name": "Super Market Haiti",
    "address":"15 r Suez, 75018 PARIS",
    "coords":  {
      "latitude": 48.887293,
      "longitude": 2.351929
    }
  },
{
    "name": "Bonjour",
    "address":"150 bd Grenelle, 75015 PARIS",
    "coords":  {
      "latitude": 48.848299,
      "longitude": 2.299555
    }
  },
{
    "name": "Soussi Bachir",
    "address":"151 bd Charonne, 75011 PARIS",
    "coords":  {
      "latitude": 48.858236,
      "longitude": 2.389414
    }
  },
{
    "name": "Belkas Idder",
    "address":"151 r Roquette, 75011 PARIS",
    "coords":  {
      "latitude": 48.8595,
      "longitude": 2.386195
    }
  },
{
    "name": "El Gautih Hassane",
    "address":"152 av Jean Jaurès, 75019 PARIS",
    "coords":  {
      "latitude": 48.88696,
      "longitude": 2.387524
    }
  },
{
    "name": "Hassoun Jamaa",
    "address":"152 av Versailles, 75016 PARIS",
    "coords":  {
      "latitude": 48.84115,
      "longitude": 2.265316
    }
  },
{
    "name": "Chawki Mohamed",
    "address":"153 r St Jacques, 75005 PARIS",
    "coords":  {
      "latitude": 48.846377,
      "longitude": 2.343463
    }
  },
{
    "name": "Shahjalal Cash & Carry",
    "address":"155 r Fbg St Denis, 75010 PARIS",
    "coords":  {
      "latitude": 48.878679,
      "longitude": 2.356555
    }
  },
{
    "name": "Khoummam Mohamed",
    "address":"156 r Raymond Losserand, 75014 PARIS",
    "coords":  {
      "latitude": 48.831225,
      "longitude": 2.310862
    }
  },
{
    "name": "Iguenfer Mohamed",
    "address":"159 av Italie, 75013 PARIS",
    "coords":  {
      "latitude": 48.819693,
      "longitude": 2.359942
    }
  },
{
    "name": "Chateau Des Rentiers (SARL)",
    "address":"159 r Château des Rentiers, 75013 PARIS",
    "coords":  {
      "latitude": 48.829991,
      "longitude": 2.362611
    }
  },
{
    "name": "SAK De Flandre",
    "address":"16 av Flandre, 75019 PARIS",
    "coords":  {
      "latitude": 48.88496,
      "longitude": 2.370327
    }
  },
{
    "name": "Epicerie de l'arrivée",
    "address":"16 r Arrivée, 75015 PARIS",
    "coords":  {
      "latitude": 48.843301,
      "longitude": 2.321459
    }
  },
{
    "name": "City Distribution",
    "address":"16 r Beaune, 75007 PARIS",
    "coords":  {
      "latitude": 48.858026,
      "longitude": 2.329294
    }
  },
{
    "name": "Mireis Aphitchaya",
    "address":"16 r Chanoinesse, 75004 PARIS",
    "coords":  {
      "latitude": 48.853841,
      "longitude": 2.350939
    }
  },
{
    "name": "PROXI",
    "address":"16 r Jouffroy d'Abbans, 75017 PARIS",
    "coords":  {
      "latitude": 48.886878,
      "longitude": 2.311995
    }
  },
{
    "name": "Dridi Jamil",
    "address":"16 r Martyrs, 75009 PARIS",
    "coords":  {
      "latitude": 48.877521,
      "longitude": 2.339936
    }
  },
{
    "name": "Proxi Fares",
    "address":"16 r Saussaies, 75008 PARIS",
    "coords":  {
      "latitude": 48.871592,
      "longitude": 2.318438
    }
  },
{
    "name": "Tirtikan S",
    "address":"162 av Parmentier, 75010 PARIS",
    "coords":  {
      "latitude": 48.87097,
      "longitude": 2.370627
    }
  },
{
    "name": "Taleb Market",
    "address":"162 r Fbg Poissonnière, 75010 PARIS",
    "coords":  {
      "latitude": 48.882223,
      "longitude": 2.349957
    }
  },
{
    "name": "Bezizi Mohamed",
    "address":"163 Bis r Vaugirard, 75015 PARIS",
    "coords":  {
      "latitude": 48.843546,
      "longitude": 2.315045
    }
  },
{
    "name": "proxi Abondance Musprix",
    "address":"163 r Rome, 75017 PARIS",
    "coords":  {
      "latitude": 48.886983,
      "longitude": 2.314456
    }
  },
{
    "name": "Taroudant",
    "address":"164 r Fbg St Martin, 75010 PARIS",
    "coords":  {
      "latitude": 48.876909,
      "longitude": 2.361352
    }
  },
{
    "name": "ALIMENTATION GÉNÉRALE LAFAYETTE",
    "address":"166 r Lafayette, 75010 PARIS",
    "coords":  {
      "latitude": 48.879601,
      "longitude": 2.358531
    }
  },
{
    "name": "Proxi",
    "address":"166 r Legendre, 75017 PARIS",
    "coords":  {
      "latitude": 48.890867,
      "longitude": 2.325271
    }
  },
{
    "name": "Moubariki Mbark",
    "address":"17 bd Temple, 75003 PARIS",
    "coords":  {
      "latitude": 48.864207,
      "longitude": 2.365804
    }
  },
{
    "name": "Labassi Walid",
    "address":"17 r Alphonse Karr, 75019 PARIS",
    "coords":  {
      "latitude": 48.894461,
      "longitude": 2.379552
    }
  },
{
    "name": "L'Epicerie Du Village D'Auteui",
    "address":"17 r George Sand, 75016 PARIS",
    "coords":  {
      "latitude": 48.849372,
      "longitude": 2.268681
    }
  },
{
    "name": "Inter Plus Alimentation orientale",
    "address":"17 r Jessaint, 75018 PARIS",
    "coords":  {
      "latitude": 48.884826,
      "longitude": 2.356288
    }
  },
{
    "name": "Aksha II",
    "address":"176 bd Voltaire, 75011 PARIS",
    "coords":  {
      "latitude": 48.855006,
      "longitude": 2.384273
    }
  },
{
    "name": "Krouna Soufiane",
    "address":"179 r Crimée, 75019 PARIS",
    "coords":  {
      "latitude": 48.89012,
      "longitude": 2.37723
    }
  },
{
    "name": "SAS Moprixmo",
    "address":"185 r Lourmel, 75015 PARIS",
    "coords":  {
      "latitude": 48.837674,
      "longitude": 2.281796
    }
  },
{
    "name": "Safran",
    "address":"19 r Amsterdam, 75008 PARIS",
    "coords":  {
      "latitude": 48.877551,
      "longitude": 2.326759
    }
  },
{
    "name": "Tiliouine Nejib",
    "address":"19 r Penthièvre, 75008 PARIS",
    "coords":  {
      "latitude": 48.872856,
      "longitude": 2.316312
    }
  },
{
    "name": "LIBRE-SERVICE ITALIE",
    "address":"190 av d’Italie, 75013 PARIS",
    "coords":  {
      "latitude": 48.81968,
      "longitude": 2.358897
    }
  },
{
    "name": "Ben Mahmoud Habib",
    "address":"191 r Javel, 75015 PARIS",
    "coords":  {
      "latitude": 48.840168,
      "longitude": 2.292602
    }
  },
{
    "name": "Krouna Zouhair",
    "address":"199 r Charenton, 75012PARIS",
    "coords":  {
      "latitude": 48.839799,
      "longitude": 2.388727
    }
  },
{
    "name": "Oberkampf : ALIMENTATION GÉNÉRALE TIMBAUD",
    "address":"20 r Jean-Pierre Timbaud, 75011 PARIS",
    "coords":  {
      "latitude": 48.865275,
      "longitude": 2.368684
    }
  },
{
    "name": "Semam (SA)",
    "address":"27 r Fbg St Denis, 75010 PARIS",
    "coords":  {
      "latitude": 48.870793,
      "longitude": 2.353111
    }
  },
{
    "name": "Le brea",
    "address":"3 r Bréa, 75006 PARIS",
    "coords":  {
      "latitude": 48.843669,
      "longitude": 2.330539
    }
  },
{
    "name": "SUPÉRETTE MERYAM",
    "address":"3 r de la Chine, 75020 PARIS",
    "coords":  {
      "latitude": 48.86466,
      "longitude": 2.40129
    }
  },
{
    "name": "ALIMENTATION OMRAN LA CHAPELLE",
    "address":"32 r de La Chapelle, 75018 PARIS",
    "coords":  {
      "latitude": 48.89254,
      "longitude": 2.360264
    }
  },
{
    "name": "SUPER MARKET CLICHY",
    "address":"33 bd Clichy, 75018 PARIS",
    "coords":  {
      "latitude": 48.882668,
      "longitude": 2.335461
    }
  },
{
    "name": "Proxi",
    "address":"35 r Cardinet, 75017 PARIS",
    "coords":  {
      "latitude": 48.882383,
      "longitude": 2.304559
    }
  },
{
    "name": "Mangiamoitaliano.com",
    "address":"39 r Bretagne, 75003 PARIS",
    "coords":  {
      "latitude": 48.862926,
      "longitude": 2.362166
    }
  },
{
    "name": "LIBRE-SERVICE LA CHAPELLE",
    "address":"39 r de la Chapelle, 75018 PARIS",
    "coords":  {
      "latitude": 48.893231,
      "longitude": 2.359045
    }
  },
{
    "name": "Ismail Sofiene",
    "address":"39 r Letellier, 75015 PARIS",
    "coords":  {
      "latitude": 48.84772,
      "longitude": 2.297009
    }
  },
{
    "name": "ÉPICERIE DE TENON",
    "address":"46 r Pelleport, 75020 PARIS",
    "coords":  {
      "latitude": 48.865046,
      "longitude": 2.403946
    }
  },
{
    "name": "BALA (SARL)",
    "address":"47 r St Maur, 75011 PARIS",
    "coords":  {
      "latitude": 48.861858,
      "longitude": 2.380278
    }
  },
{
    "name": "ALIMENTATION GÉNÉRALE AOLOUZE",
    "address":"5 av Gambetta, 75020 PARIS",
    "coords":  {
      "latitude": 48.863493,
      "longitude": 2.389099
    }
  },
{
    "name": "STATION SERVICE AVIA",
    "address":"5 bd Garibaldi, 75015 PARIS",
    "coords":  {
      "latitude": 48.847715,
      "longitude": 2.30311
    }
  },
{
    "name": "ALIMENTATION GÉNÉRALE MAGENTA",
    "address":"5 bd Magenta, 75010 PARIS",
    "coords":  {
      "latitude": 48.869546,
      "longitude": 2.361618
    }
  },
{
    "name": "Saraswathi",
    "address":"5 r Planchat, 75020 PARIS",
    "coords":  {
      "latitude": 48.852016,
      "longitude": 2.399195
    }
  },
{
    "name": "Proxi Service",
    "address":"5 r Valentin Haüy, 75015 PARIS",
    "coords":  {
      "latitude": 48.846873,
      "longitude": 2.31032
    }
  },
{
    "name": "Mazmouz Abdallah",
    "address":"56 r St Sébastien, 75011 PARIS",
    "coords":  {
      "latitude": 48.862199,
      "longitude": 2.37363
    }
  },
{
    "name": "Proxi",
    "address":"58 r Amelot, 75011 PARIS",
    "coords":  {
      "latitude": 48.859674,
      "longitude": 2.368261
    }
  },
{
    "name": "Selim Orientale",
    "address":"63 bd Ornano, 75018 PARIS",
    "coords":  {
      "latitude": 48.896551,
      "longitude": 2.345521
    }
  },
{
    "name": "Dasavouh",
    "address":"64 av Jean Moulin, 75014 PARIS",
    "coords":  {
      "latitude": 48.825309,
      "longitude": 2.320616
    }
  },
{
    "name": "Satouri Mounir",
    "address":"7 pl Charles Dullin, 75018 PARIS",
    "coords":  {
      "latitude": 48.883307,
      "longitude": 2.341669
    }
  },
{
    "name": "Proxi Service",
    "address":"72 r Cherche Midi, 75006 PARIS",
    "coords":  {
      "latitude": 48.848342,
      "longitude": 2.323926
    }
  },
{
    "name": "ALIMENATION GÉNÉRALE CADET",
    "address":"8 r Cadet, 75009 PARIS",
    "coords":  {
      "latitude": 48.874428,
      "longitude": 2.342867
    }
  },
{
    "name": "Saafi Mokhtar",
    "address":"83 r Tocqueville, 75017 PARIS",
    "coords":  {
      "latitude": 48.886974,
      "longitude": 2.307889
    }
  },
{
    "name": "Superette Erard",
    "address":"9 r Erard, 75012 PARIS",
    "coords":  {
      "latitude": 48.845673,
      "longitude": 2.38449
    }
  },
{
    "name": "Satouri Taïeb",
    "address":"9 r François Ponsard, 75116 PARIS",
    "coords":  {
      "latitude": 48.859063,
      "longitude": 2.274331
    }
  },
{
    "name": "LE PETIT MARCHÉ MARX DORMOY",
    "address":"9 r Marx Dormoy, 75018 PARIS",
    "coords":  {
      "latitude": 48.885251,
      "longitude": 2.358864
    }
  },
{
    "name": "Proxi Services Le verger de courcelles (Sarl) Commerce indépendant",
    "address":"91 r Courcelles, 75017 PARIS",
    "coords":  {
      "latitude": 48.880156,
      "longitude": 2.301831
    }
  },
{
    "name": "Alimentation Generale",
    "address":"168 r de Belleville, 75019 PARIS",
    "coords":  {
      "latitude": 48.875443,
      "longitude": 2.392111
    }
  },
{
    "name": "Alimentation Generale",
    "address":"88 av d'Italie, 75013 PARIS",
    "coords":  {
      "latitude": 48.825751,
      "longitude": 2.357055
    }
  }
]
